{
  "id": "route-17",
  "routeNumber": "17",
  "routeName": "용이동-평택C",
  "contractor": "삼성E&A/뉴부자",
  "type": "regular",
  "origin": {
    "id": "origin-용이동-평택C",
    "name": "용이동 반도유보라 (301동 앞 육교밑 버스정류장)",
    "address": "",
    "lat": 36.99828085638508,
    "lng": 127.14501699957128
  },
  "destination": {
    "id": "dest-용이동-평택C",
    "name": "셔틀버스 승강장",
    "address": "",
    "lat": 37.02781906866656,
    "lng": 127.05154573327503
  },
  "stops": [
    {
      "id": "stop-용이동C-2",
      "name": "용이동 푸르지오 (105동 맞은편 버스정류장)",
      "address": "",
      "lat": 36.999245961176044,
      "lng": 127.14048295904495
    },
    {
      "id": "stop-용이동C-3",
      "name": "용이동 현촌교회 (맞은편 버스정류장)",
      "address": "",
      "lat": 37.002542114716945,
      "lng": 127.13425649214986
    },
    {
      "id": "stop-용이동C-4",
      "name": "용이동 이편한세상 아파트(106동 맞은 편 버스정류장)",
      "address": "",
      "lat": 37.00241557948629,
      "lng": 127.1289129850346
    },
    {
      "id": "stop-용이동C-5",
      "name": "우미린레이크 아파트(209동 앞 버스정류장)",
      "address": "",
      "lat": 37.0029609335323,
      "lng": 127.12450532721748
    },
    {
      "id": "stop-용이동C-6",
      "name": "소사벌 반도유보라 아파트(106동 앞 버스정류장)",
      "address": "",
      "lat": 37.00885767876101,
      "lng": 127.11736000065376
    }
  ],
  "commuteSchedule": [
    {
      "time": "04:50"
    },
    {
      "time": "05:10"
    },
    {
      "time": "05:20"
    },
    {
      "time": "05:25"
    },
    {
      "time": "05:30"
    },
    {
      "time": "05:35"
    },
    {
      "time": "05:45"
    },
    {
      "time": "06:00"
    },
    {
      "time": "06:30"
    }
  ],
  "returnSchedule": [
    {
      "time": "16:45"
    },
    {
      "time": "17:00"
    },
    {
      "time": "17:10"
    },
    {
      "time": "17:20"
    },
    {
      "time": "17:40"
    },
    {
      "time": "17:50"
    },
    {
      "time": "18:20"
    },
    {
      "time": "19:20"
    },
    {
      "time": "19:30"
    },
    {
      "time": "19:40"
    },
    {
      "time": "19:50"
    },
    {
      "time": "21:30"
    }
  ],
  "weekendCommuteSchedule": [
    {
      "time": "04:50"
    },
    {
      "time": "05:15"
    },
    {
      "time": "06:00"
    }
  ],
  "weekendReturnSchedule": [
    {
      "time": "16:30"
    },
    {
      "time": "17:00"
    }
  ]
}